{"type":"FeatureCollection","features":[{"type":"Feature","properties":{"name":"Rodasa Toda","type":"tricycle","district":"D1"},"geometry":{"coordinates":[120.96441428316382,14.629889271908596],"type":"Point"},"id":1},{"type":"Feature","properties":{"name":"Parola Toda","type":"tricycle","district":"D1"},"geometry":{"coordinates":[120.96768521182577,14.602866106006132],"type":"Point"},"id":1},{"type":"Feature","properties":{"name":"Deca Mall Toda","type":"tricycle","district":"D1"},"geometry":{"coordinates":[120.96311135614854,14.624539048307653],"type":"Point"},"id":2},{"type":"Feature","properties":{"name":"PNR22 Dag Toda","type":"tricycle","district":"D1"},"geometry":{"coordinates":[120.97444199926531,14.611555878175395],"type":"Point"},"id":3},{"type":"Feature","properties":{"name":"Kagitoda","type":"tricycle","district":"D1"},"geometry":{"coordinates":[120.96229301258631,14.607985223797783],"type":"Point"},"id":4},{"type":"Feature","properties":{"name":"Romane Toda","type":"tricycle","district":"D1"},"geometry":{"coordinates":[120.96474365182189,14.629910142570978],"type":"Point"},"id":6},{"type":"Feature","properties":{"name":"Viboka Toda","type":"tricycle","district":"D1"},"geometry":{"coordinates":[120.96240859830897,14.62644446840801],"type":"Point"},"id":6},{"type":"Feature","properties":{"name":"Bomagtoda","type":"tricycle","district":"D1"},"geometry":{"coordinates":[120.96147860202166,14.616355506125473],"type":"Point"},"id":7},{"type":"Feature","properties":{"name":"THVT Toda INC.","type":"tricycle","district":"D1"},"geometry":{"coordinates":[120.95968636354183,14.623707730067323],"type":"Point"},"id":8},{"type":"Feature","properties":{"name":"Delpan Toda","type":"tricycle","district":"D1"},"geometry":{"coordinates":[120.96453582276774,14.601357648132804],"type":"Point"},"id":9},{"type":"Feature","properties":{"name":"BRGY 199 Toda","type":"tricycle","district":"D2"},"geometry":{"coordinates":[120.97764694836297,14.632595592230984],"type":"Point"},"id":0},{"type":"Feature","properties":{"name":"Pampanga Toda","type":"tricycle","district":"D2"},"geometry":{"coordinates":[120.97351609090072,14.628957127768686],"type":"Point"},"id":1},{"type":"Feature","properties":{"name":"Maybuster Toda","type":"tricycle","district":"D2"},"geometry":{"coordinates":[120.97382837151264,14.609469398350399],"type":"Point"},"id":2},{"type":"Feature","properties":{"name":"Lamabentoda","type":"tricycle","district":"D2"},"geometry":{"coordinates":[120.97828228151872,14.607837092042061],"type":"Point"},"id":3},{"type":"Feature","properties":{"name":"MT Toda","type":"tricycle","district":"D2"},"geometry":{"coordinates":[120.98270467569631,14.622576816633213],"type":"Point"},"id":4},{"type":"Feature","properties":{"name":"Paraiso Toda","type":"tricycle","district":"D2"},"geometry":{"coordinates":[120.97391712633356,14.63460696008569],"type":"Point"},"id":5},{"type":"Feature","properties":{"name":"BRGY 184 Toda ","type":"tricycle","district":"D2"},"geometry":{"coordinates":[120.973266127959,14.614176319941024],"type":"Point"},"id":6},{"type":"Feature","properties":{"name":"Dynasty Toda","type":"tricycle","district":"D2"},"geometry":{"coordinates":[120.97614481658735,14.612575255097738],"type":"Point"},"id":7},{"type":"Feature","properties":{"name":"Cavite Toda","type":"tricycle","district":"D2"},"geometry":{"coordinates":[120.97285188482357,14.625240504342557],"type":"Point"},"id":8},{"type":"Feature","properties":{"type":"tricycle","name":"Hermanu Toda","district":"D2"},"geometry":{"coordinates":[120.98032351184258,14.631938775531026],"type":"Point"},"id":9},{"type":"Feature","properties":{"name":"PGTA Toda","type":"tricycle","district":"D2"},"geometry":{"coordinates":[120.97106625220846,14.618637817689162],"type":"Point"},"id":20},{"type":"Feature","properties":{"name":"MIB Toda","type":"tricycle","district":"D2"},"geometry":{"coordinates":[120.97851037473458,14.611812834852444],"type":"Point"},"id":11},{"type":"Feature","properties":{"type":"tricycle","name":"Benita Toda","district":"D2"},"geometry":{"coordinates":[120.97428438246402,14.63050428063319],"type":"Point"},"id":3},{"type":"Feature","properties":{"name":"Bamas Toda ","type":"tricycle","district":"D2"},"geometry":{"coordinates":[120.97921326174975,14.609522168656838],"type":"Point"},"id":13},{"type":"Feature","properties":{"name":"Rodelfie Toda","type":"tricycle","district":"D2"},"geometry":{"coordinates":[120.96946136302637,14.62794837696579],"type":"Point"},"id":4},{"type":"Feature","properties":{"name":"HerToda","type":"tricycle","district":"D2"},"geometry":{"coordinates":[120.97990982965695,14.6322175568542],"type":"Point"},"id":25},{"type":"Feature","properties":{"name":"TaToda","type":"tricycle","district":"D2"},"geometry":{"coordinates":[120.98266493975962,14.619367999827162],"type":"Point"},"id":16},{"type":"Feature","properties":{"name":"BaToda ","type":"tricycle","district":"D2"},"geometry":{"coordinates":[120.98276611341754,14.620576582753316],"type":"Point"},"id":17},{"type":"Feature","properties":{"name":"CMART Toda","type ":"","district ":"","type":"tricycle","district":"D2"},"geometry":{"coordinates":[120.97360219873411,14.607002713824116],"type":"Point"},"id":28},{"type":"Feature","properties":{"name":"Yaquitoda","type":"tricycle","district":"D2"},"geometry":{"coordinates":[120.97871094591687,14.613410278106485],"type":"Point"}},{"type":"Feature","properties":{"name":"Anactoda Toda","type":"tricycle","district":"D3"},"geometry":{"coordinates":[120.98511611771437,14.627979731627875],"type":"Point"},"id":1},{"type":"Feature","properties":{"type":"tricycle","name":"ASPT Toda","district":"D3"},"geometry":{"coordinates":[120.96741988583835,14.602728832138482],"type":"Point"},"id":31},{"type":"Feature","properties":{"name":"Atoda Toda","type":"tricycle","district":"D3"},"geometry":{"coordinates":[120.98702003761275,14.625431734690139],"type":"Point"},"id":2},{"type":"Feature","properties":{"name":"Alquitoda Toda","type":"tricycle","district":"D3"},"geometry":{"coordinates":[120.98251618583282,14.614475486119758],"type":"Point"},"id":3},{"type":"Feature","properties":{"name":" Bamtoda Toda","type":"tricycle","district":"D3"},"geometry":{"coordinates":[120.98317854719494,14.611012530991289],"type":"Point"},"id":4},{"type":"Feature","properties":{"name":"BRGY.367 Toda","type":"tricycle","district":"D3"},"geometry":{"coordinates":[120.98541924851628,14.62534296891154],"type":"Point"},"id":6},{"type":"Feature","properties":{"name":"Blumatoda Toda","type":"tricycle","district":"D3"},"geometry":{"coordinates":[120.98690780967473,14.624089269236848],"type":"Point"},"id":6},{"type":"Feature","properties":{"type":"tricycle","name":"Bottoda Toda ","district":"D3"},"geometry":{"coordinates":[120.98393698150062,14.624177838025957],"type":"Point"},"id":7},{"type":"Feature","properties":{"type":"tricycle","name":"CM Toda","district":"D3"},"geometry":{"coordinates":[120.98599264944067,14.609515666012953],"type":"Point"},"id":8},{"type":"Feature","properties":{"name":"Felher Toda","type":"tricycle","district":"D3"},"geometry":{"coordinates":[120.98481035660166,14.618012507536548],"type":"Point"},"id":9},{"type":"Feature","properties":{"name":"Habtoda Toda","type":"tricycle","district":"D3"},"geometry":{"coordinates":[120.9844513681274,14.597844813830264],"type":"Point"},"id":10},{"type":"Feature","properties":{"name":"LSCM Toda","type":"tricycle","district":"D3"},"geometry":{"coordinates":[120.98484900702829,14.618982595336774],"type":"Point"},"id":11},{"type":"Feature","properties":{"type":"tricycle","name":"Pista Toda","district":"D3"},"geometry":{"coordinates":[120.98763920993821,14.618809299485534],"type":"Point"},"id":13},{"type":"Feature","properties":{"name":"RBV Toda","type":"tircycle","district":"D3"},"geometry":{"coordinates":[120.98577278832363,14.605929488157102],"type":"Point"},"id":14},{"type":"Feature","properties":{"name":"Uno Blast Toda","type":"tricycle","district":"D3"},"geometry":{"coordinates":[120.98355511277856,14.622619852585487],"type":"Point"},"id":15},{"type":"Feature","properties":{"name":"Camarotoda Toda","type":"trycicle","district":"D4"},"geometry":{"coordinates":[120.99820445630968,14.614247126660999],"type":"Point"},"id":0},{"type":"Feature","properties":{"name":"Leytetoda Toda","type":"tricycle","district":"D4"},"geometry":{"coordinates":[121.0075495422177,14.608482478527804],"type":"Point"}},{"type":"Feature","properties":{"name":"PSTODA Toda","type":"tricycle","district":"D4"},"geometry":{"coordinates":[121.01361162923638,14.602638129188975],"type":"Point"}},{"type":"Feature","properties":{"name":"Pantoda Toda","type":"tricycle","district":"D4"},"geometry":{"coordinates":[120.9864499397616,14.60986304306887],"type":"Point"}},{"type":"Feature","properties":{"name":"SC Toda","type":"tricycle","district":"D4"},"geometry":{"coordinates":[120.99134667267157,14.620330547703688],"type":"Point"}},{"type":"Feature","properties":{"name":"Navadap Toda ","type":"tricycle","district":"D4"},"geometry":{"coordinates":[120.98669121138545,14.611696446617472],"type":"Point"}},{"type":"Feature","properties":{"name":"Vedel Toda","type":"tricycle","district":"D4"},"geometry":{"coordinates":[121.00094076257199,14.605614741076451],"type":"Point"}},{"type":"Feature","properties":{"name":"Samar GT Toda","type":"tricycle","district":"D4"},"geometry":{"coordinates":[121.00700390415352,14.607990526270129],"type":"Point"}},{"type":"Feature","properties":{"name":"BAGT Toda","type":"tricycle","district":"D4"},"geometry":{"coordinates":[121.01013259598744,14.602785102177833],"type":"Point"},"id":8},{"type":"Feature","properties":{"name":"Masdatoda Toda","type":"tricycle","district":"D4"},"geometry":{"coordinates":[121.0101479124558,14.60294890427923],"type":"Point"},"id":9},{"type":"Feature","properties":{"name":"Domalquitoda Toda","type":"tricycle","district":"D4"},"geometry":{"coordinates":[121.00323801562217,14.606808189456245],"type":"Point"},"id":10},{"type":"Feature","properties":{"name":"Craigtoda Toda","type":"tricycle","district":"D4"},"geometry":{"coordinates":[120.99752428309534,14.613812194904739],"type":"Point"}},{"type":"Feature","properties":{"name":"WVVDS Toda","type":"tricycle","district":"D4"},"geometry":{"coordinates":[121.00825982811159,14.602634173638933],"type":"Point"}},{"type":"Feature","properties":{"name":"Blumamiv Toda","type":"tricycle","district":"D4"},"geometry":{"coordinates":[121.0102964575243,14.602839204529616],"type":"Point"}},{"type":"Feature","properties":{"name":"PMDF Toda","type":"tricycle","district":"D4"},"geometry":{"coordinates":[120.99243706073258,14.613512049716505],"type":"Point"}},{"type":"Feature","properties":{"name":"Firquest Toda","type":"tricycle","district":"D4"},"geometry":{"coordinates":[120.99747635398717,14.612967421557158],"type":"Point"},"id":0},{"type":"Feature","properties":{"name":"Leges Toda","type":"tricycle","district":"D4"},"geometry":{"coordinates":[120.9926631007803,14.601426712392254],"type":"Point"},"id":61},{"type":"Feature","properties":{"name":"LorToda","type":"tricycle","district":"D4"},"geometry":{"coordinates":[120.99938747573037,14.601433139645223],"type":"Point"},"id":3},{"type":"Feature","properties":{"name":"Mides Toda","type":"tricycle","district":"D4"},"geometry":{"coordinates":[120.9916386242017,14.608464956841871],"type":"Point"},"id":4},{"type":"Feature","properties":{"name":"Crismar Toda","type":"tricycle","district":"D4"},"geometry":{"coordinates":[120.99359011380034,14.614404775449728],"type":"Point"},"id":5},{"type":"Feature","properties":{"name":"Malofa Toda","type":"tricycle","district":"D4"},"geometry":{"coordinates":[120.99808732013406,14.614246349916698],"type":"Point"},"id":6},{"type":"Feature","properties":{"name":"Gtquest Toda","type":"tricycle","district":"D4"},"geometry":{"coordinates":[121.00315007628274,14.606900742692545],"type":"Point"},"id":7},{"type":"Feature","properties":{"name":"Jh Toda","type":"tricycle","district":"D4"},"geometry":{"coordinates":[120.99589100066561,14.600694462999371],"type":"Point"},"id":8},{"type":"Feature","properties":{"name":"Panay Toda","type":"tricycle","district":"D4"},"geometry":{"coordinates":[120.99931164564623,14.615443946538605],"type":"Point"},"id":9},{"type":"Feature","properties":{"name":"Nubas Toda","type":"tricycle","district":"D4"},"geometry":{"coordinates":[120.98838720776786,14.605481304038122],"type":"Point"},"id":10},{"type":"Feature","properties":{"name":"Masa Toda","type":"tricycle","district":"D4"},"geometry":{"coordinates":[121.0081875563792,14.607165537340052],"type":"Point"},"id":11},{"type":"Feature","properties":{"name":"Gerardo Toda","type":"tricycle","district":"D4"},"geometry":{"coordinates":[121.00366386621437,14.608129850771704],"type":"Point"},"id":12},{"type":"Feature","properties":{"name":"Visayan Toda","type":"tricycle","district":"D4"},"geometry":{"coordinates":[121.0065407592574,14.604976481917973],"type":"Point"},"id":13},{"type":"Feature","properties":{"name":"Intra Toda","type":"tricycle","district":"D5"},"geometry":{"coordinates":[120.97425591534625,14.593818496730961],"type":"Point"},"id":73},{"type":"Feature","properties":{"name":"703 Satoda Toda","type":"tricycle","district":"D5"},"geometry":{"coordinates":[120.99069999687987,14.570273564601393],"type":"Point"},"id":1},{"type":"Feature","properties":{"name":"RFM Toda","type":"tricycle","district":"D5"},"geometry":{"coordinates":[120.9832286690285,14.578520037212911],"type":"Point"},"id":75},{"type":"Feature","properties":{"name":"Leatoda Toda ","type":"tricycle","district":"D5"},"geometry":{"coordinates":[120.99083826001441,14.571319019832117],"type":"Point"},"id":3},{"type":"Feature","properties":{"name":"Luktoda Toda","type":"tricycle","district":"D5"},"geometry":{"coordinates":[120.98959069815231,14.581644203215177],"type":"Point"},"id":4},{"type":"Feature","properties":{"name":"SNAC TWA Toda","type":"tricycle","district":"D5"},"geometry":{"coordinates":[120.98254371970677,14.590332853620737],"type":"Point"},"id":5},{"type":"Feature","properties":{"name":"KRD Toda","type":"tricycle","district":"D5"},"geometry":{"coordinates":[120.97880905461875,14.580458200448689],"type":"Point"},"id":6},{"type":"Feature","properties":{"name":"Smapo Toda","type":"tricycle","district":"D5"},"geometry":{"coordinates":[120.99133050123635,14.562641746521422],"type":"Point"},"id":80},{"type":"Feature","properties":{"name":"669 Toda","type":"tricycle","district":"D5"},"geometry":{"coordinates":[120.98297222277631,14.57546606012238],"type":"Point"},"id":8},{"type":"Feature","properties":{"name":"Unicrispatoda Toda","type":"tricycle","district":"D5"},"geometry":{"coordinates":[120.99391060565779,14.58456572467739],"type":"Point"},"id":82},{"type":"Feature","properties":{"name":"Sanmatoda Toda","type":"tricycle","district":"D5"},"geometry":{"coordinates":[120.99247447320033,14.570545918950984],"type":"Point"},"id":83},{"type":"Feature","properties":{"name":"Baseco Toda","type":"tricycle","district":"D5"},"geometry":{"coordinates":[120.96982901707179,14.591562441473968],"type":"Point"},"id":11},{"type":"Feature","properties":{"Name":"Damka Toda","Type":"Tricycle","district":"D6","name":"","type":""},"geometry":{"coordinates":[121.01852846206998,14.600585297976792],"type":"Point"},"id":85},{"type":"Feature","properties":{"Name":"OSMB Toda","Type":"Tricycle","district":"D6","name":""},"geometry":{"coordinates":[121.01842761925252,14.600607879212603],"type":"Point"},"id":86},{"type":"Feature","properties":{"Name":"ValToda Toda","Type":"Tricycle","district":"D6","name":""},"geometry":{"coordinates":[121.01765192340417,14.597746232220672],"type":"Point"},"id":87},{"type":"Feature","properties":{"Name":"Salorisa Toda","Type":"Tricycle","district":"D6","name":""},"geometry":{"coordinates":[121.02177023410144,14.599384053194797],"type":"Point"},"id":88},{"type":"Feature","properties":{"Name":"Matoda Toda","Type":"Tricycle","district":"D6","name":""},"geometry":{"coordinates":[120.99923321810513,14.592000520189359],"type":"Point"},"id":89},{"type":"Feature","properties":{"Name":"Kamoda Toda","Type":"Tricycle","district":"D6","name":""},"geometry":{"coordinates":[121.00721577941857,14.580608208725096],"type":"Point"},"id":90},{"type":"Feature","properties":{"Name":"Merrona Toda","Type":"Tricycle","district":"D6","name":""},"geometry":{"coordinates":[120.99130818004454,14.59996412836496],"type":"Point"},"id":6},{"type":"Feature","properties":{"Name":"SNMIG Toda","Type":"Tricycle","district":"D6","name":""},"geometry":{"coordinates":[120.9895777102796,14.59260599993597],"type":"Point"},"id":92},{"type":"Feature","properties":{"Name":"PCVAR Toda","Type":"Tricycle","district":"D6","name":""},"geometry":{"coordinates":[120.9887845280735,14.596043829558454],"type":"Point"},"id":93}]}